[{
	"id": "1",
	"full_name": "Andrew Roddick",
	"hometown_city": "Austin",
	"hometown_state": "Texas",
	"hometown_country": "United States",
	"lng": -97.743061,
    "lat": 30.267153
},{
	"id": "2",
	"full_name": "Mithun Chakraborty",
	"hometown_city": "Kolkata",
	"hometown_state": "West Bengal",
	"hometown_country": "India",
	"lng": 88.363895,
    "lat": 22.572646
},{
	"id": "3",
	"full_name": "Koh Tiong Lu",
	"hometown_city": "Ipoh",
	"hometown_state": "Perak",
	"hometown_country": "Malaysia",
	"lng": 101.090106,
    "lat": 4.597479
},{
	"id": "4",
	"full_name": "Khairy Abu Bakar",
	"hometown_city": "Kuala Lumpur",
	"hometown_state": "Wilayah Persekutuan",
	"hometown_country": "Malaysia",
	"lng": 101.686855,
    "lat": 3.139003
},{
	"id": "5",
	"full_name": "Alexander Ferguson",
	"hometown_city": "Glasgow",
	"hometown_state": "Scotland",
	"hometown_country": "United Kingdom",
	"lng": -4.251806,
    "lat": 55.864237
},{
	"id": "6",
	"full_name": "Michael Coupe",
	"hometown_city": "Watford",
	"hometown_state": "Hertfordshire",
	"hometown_country": "United Kingdom",
	"lng": -0.390320,
    "lat": 51.656489
},{
	"id": "7",
	"full_name": "Robert Jones III",
	"hometown_city": "Cleveland",
	"hometown_state": "Tennessee",
	"hometown_country": "United States",
	"lng": -84.876611,
    "lat": 35.159518
},{
	"id": "8",
	"full_name": "Aditya Mittal",
	"hometown_city": "Kolkata",
	"hometown_state": "West Bengal",
	"hometown_country": "India",
	"lng": 88.363895,
    "lat": 22.572646
},{
	"id": "9",
	"full_name": "Adam Fleming",
	"hometown_city": "London",
	"hometown_state": "Greater London",
	"hometown_country": "United Kingdom",
	"lng": -0.093650,
    "lat": 51.430921
},{
	"id": "10",
	"full_name": "Vishal Devgan",
	"hometown_city": "New Delhi",
	"hometown_state": "Delhi",
	"hometown_country": "India",
	"lng": 77.209021,
    "lat": 28.613939
}]